{
  "trailheads": [
    {
      "name": "Umagaeshi Trailhead",
      "lat": 35.4285,
      "lon": 138.7562,
      "role": "trailhead"
    },
    {
      "name": "Yoshida Trail 5th Station",
      "lat": 35.3958,
      "lon": 138.7335,
      "role": "station"
    },
    {
      "name": "Fujiyoshida Sengen Shrine",
      "lat": 35.4783,
      "lon": 138.7906,
      "role": "shrine"
    }
  ],
  "peaks": [
    {
      "name": "天上山",
      "lat": 35.503323,
      "lon": 138.7804922,
      "ele": 1139.9
    },
    {
      "name": "久須志岳",
      "lat": 35.3657834,
      "lon": 138.7322785,
      "ele": 3725
    },
    {
      "name": "宝永山",
      "lat": 35.3429392,
      "lon": 138.752078,
      "ele": 2693
    },
    {
      "name": "剣ヶ峰",
      "lat": 35.3606812,
      "lon": 138.7273506,
      "ele": 3776.2
    },
    {
      "name": "小富士",
      "lat": 35.3735073,
      "lon": 138.7791618,
      "ele": 1905.5
    },
    {
      "name": "白山岳",
      "lat": 35.3665692,
      "lon": 138.729543,
      "ele": 3756
    },
    {
      "name": "成就岳",
      "lat": 35.3642699,
      "lon": 138.7335121,
      "ele": 3734
    },
    {
      "name": "伊豆岳",
      "lat": 35.3627543,
      "lon": 138.7332441,
      "ele": 3749
    },
    {
      "name": "朝日岳",
      "lat": 35.3606918,
      "lon": 138.7330716,
      "ele": 3733
    },
    {
      "name": "浅間岳",
      "lat": 35.3600642,
      "lon": 138.7315489,
      "ele": 3722
    },
    {
      "name": "三島岳",
      "lat": 35.3594666,
      "lon": 138.7302132,
      "ele": 3734
    },
    {
      "name": "駒ヶ岳",
      "lat": 35.3594645,
      "lon": 138.7314307,
      "ele": 3718
    },
    {
      "name": "十二ヶ岳",
      "lat": 35.5196577,
      "lon": 138.691394,
      "ele": 1683.3
    },
    {
      "name": "弓射山",
      "lat": 35.4217941,
      "lon": 138.6826325,
      "ele": 1566
    },
    {
      "name": "天神山",
      "lat": 35.4353585,
      "lon": 138.6852693,
      "ele": null
    },
    {
      "name": "伊賀殿山",
      "lat": 35.431582,
      "lon": 138.6864709,
      "ele": 1485
    },
    {
      "name": "丸山",
      "lat": 35.4099166,
      "lon": 138.7283563,
      "ele": 1700
    },
    {
      "name": "紅葉台",
      "lat": 35.4873014,
      "lon": 138.6830377,
      "ele": 1202
    },
    {
      "name": "新倉山",
      "lat": 35.5112564,
      "lon": 138.8020363,
      "ele": 1184
    },
    {
      "name": "二ッ塚",
      "lat": 35.334733,
      "lon": 138.772357,
      "ele": 1929
    },
    {
      "name": "赤塚",
      "lat": 35.322752,
      "lon": 138.7997885,
      "ele": 1371
    },
    {
      "name": "霜山",
      "lat": 35.5198294,
      "lon": 138.7950414,
      "ele": 1301.7
    }
  ]
}